"STOP_ID","STOP_NAME","STATION_NAME","Latitude","Longitude","Transit.index","PD.index","PD.dist","DISTRICT","Latitude.PD","Longitude.PD","PD.Dist.km"
30162,"18th (54th/Cermak-bound)","18th",41.857908,-87.669147,1,13,0.0254097027969984,"12",41.88031148,-87.65715796,2.68468065405306
30161,"18th (Loop-bound)","18th",41.857908,-87.669147,2,13,0.0254097027969984,"12",41.88031148,-87.65715796,2.68468065405306
30022,"35th/Archer (Loop-bound)","35th/Archer",41.829353,-87.680622,3,10,0.0349652149196629,"9",41.8375031,-87.64661991,2.96257025491716
30023,"35th/Archer (Midway-bound)","35th/Archer",41.829353,-87.680622,4,10,0.0349652149196629,"9",41.8375031,-87.64661991,2.96257025491716
30214,"35-Bronzeville-IIT (63rd-bound)","35th-Bronzeville-IIT",41.831677,-87.625826,5,1,0.00265270093169275,"Headquarters",41.83086073,-87.62330201,0.228223218064416
30213,"35-Bronzeville-IIT (Harlem-bound)","35th-Bronzeville-IIT",41.831677,-87.625826,6,1,0.00265270093169275,"Headquarters",41.83086073,-87.62330201,0.228223218064416
30246,"43rd (63rd-bound)","43rd",41.816462,-87.619021,7,1,0.0150216667594809,"Headquarters",41.83086073,-87.62330201,1.64173198822915
30245,"43rd (Harlem-bound)","43rd",41.816462,-87.619021,8,1,0.0150216667594809,"Headquarters",41.83086073,-87.62330201,1.64173198822915
30210,"47th (63rd-bound)","47th",41.809209,-87.618826,9,3,0.0139789557439031,"2",41.80177388,-87.63066366,1.28448981490238
30209,"47th (Harlem-bound)","47th",41.809209,-87.618826,10,3,0.0139789557439031,"2",41.80177388,-87.63066366,1.28448981490238
30238,"47th (95th-bound)","47th",41.810318,-87.63094,11,3,0.00854858762428375,"2",41.80177388,-87.63066366,0.951404646403898
30237,"47th (Howard-bound)","47th",41.810318,-87.63094,12,3,0.00854858762428375,"2",41.80177388,-87.63066366,0.951404646403898
30025,"51st (63rd-bound)","51st",41.80209,-87.618487,13,3,0.012180762726934,"2",41.80177388,-87.63066366,1.01107579769306
30024,"51st (Harlem-bound)","51st",41.80209,-87.618487,14,3,0.012180762726934,"2",41.80177388,-87.63066366,1.01107579769306
30113,"54th/Cermak (Loop-bound)","54th/Cermak",41.85177331,-87.75669201,15,15,0.0302719451511505,"15",41.87978023,-87.76818127,3.25996570857845
30114,"54th/Cermak (Terminal arrival)","54th/Cermak",41.85177331,-87.75669201,16,15,0.0302719451511505,"15",41.87978023,-87.76818127,3.25996570857845
30178,"63rd (95th-bound)","63rd",41.780536,-87.630952,17,3,0.0212398372604416,"2",41.80177388,-87.63066366,2.36431407265947
30177,"63rd (Howard-bound)","63rd",41.780536,-87.630952,18,3,0.0212398372604416,"2",41.80177388,-87.63066366,2.36431407265947
30192,"69th (95th-bound)","69th",41.768367,-87.625724,19,4,0.0201107123458801,"3",41.76697112,-87.60566179,1.67295663494802
30191,"69th (Howard-bound)","69th",41.768367,-87.625724,20,4,0.0201107123458801,"3",41.76697112,-87.60566179,1.67295663494802
30047,"79th (95th-bound)","79th",41.750419,-87.625112,21,7,0.0191203739595708,"6",41.75228176,-87.64414142,1.59392185633499
30046,"79th (Howard-bound)","79th",41.750419,-87.625112,22,7,0.0191203739595708,"6",41.75228176,-87.64414142,1.59392185633499
30276,"87th (95th-bound)","87th",41.735372,-87.624717,23,7,0.0257536031574976,"6",41.75228176,-87.64414142,2.47918253571756
30275,"87th (Howard-bound)","87th",41.735372,-87.624717,24,7,0.0257536031574976,"6",41.75228176,-87.64414142,2.47918253571756
30089,"95th/Dan Ryan (95th-bound)","95th/Dan Ryan",41.722377,-87.624342,25,6,0.0351462789876483,"5",41.69279474,-87.60536436,3.65127621975064
30088,"95th/Dan Ryan (Howard-bound)","95th/Ran Ryan",41.722377,-87.624342,26,6,0.0351462789876483,"5",41.69279474,-87.60536436,3.65127621975064
30132,"Adams/Wabash (Inner Loop)","Adams/Wabash",41.879507,-87.626037,27,2,0.0207272884720014,"1",41.85882087,-87.62734257,2.30531420807347
30131,"Adams/Wabash (Outer Loop)","Adams/Wabash",41.879507,-87.626037,28,2,0.0207272884720014,"1",41.85882087,-87.62734257,2.30531420807347
30240,"Addison (Forest Pk-bound)","Addison",41.94738,-87.71906,29,17,0.0207722625024209,"17",41.96605219,-87.72816144,2.21092216000155
30239,"Addison (O'Hare-bound)","Addison",41.94738,-87.71906,30,17,0.0207722625024209,"17",41.96605219,-87.72816144,2.21092216000155
30277,"Addison (Kimball-bound)","Addison",41.947028,-87.674642,31,19,0.0251668413543011,"19",41.94665927,-87.64947786,2.08388631108116
30278,"Addison (Loop-bound)","Addison",41.947028,-87.674642,32,19,0.0251668413543011,"19",41.94665927,-87.64947786,2.08388631108116
30274,"Addison (95th-bound)","Addison",41.947428,-87.653626,33,19,0.00421876892854903,"19",41.94665927,-87.64947786,0.35394754888398
30273,"Addison (Howard-bound)","Addison",41.947428,-87.653626,34,19,0.00421876892854903,"19",41.94665927,-87.64947786,0.35394754888398
30230,"Argyle (95th-bound)","Argyle",41.973453,-87.65853,35,19,0.0282815347160028,"19",41.94665927,-87.64947786,3.07535260108515
30229,"Argyle (Howard-bound)","Argyle",41.973453,-87.65853,36,19,0.0282815347160028,"19",41.94665927,-87.64947786,3.07535260108515
30127,"Armitage (Kimball-Linden-bound)","Armitage",41.918217,-87.652644,37,18,0.0176340682578489,"18",41.90311764,-87.64353523,1.84246766537812
30128,"Armitage (Loop-bound)","Armitage",41.918217,-87.652644,38,18,0.0176340682578489,"18",41.90311764,-87.64353523,1.84246766537812
30205,"Ashland (Loop-bound)","Ashland",41.839234,-87.665317,39,10,0.0187770388847183,"9",41.8375031,-87.64661991,1.56259481878648
30206,"Ashland (Midway-bound)","Ashland",41.839234,-87.665317,40,10,0.0187770388847183,"9",41.8375031,-87.64661991,1.56259481878648
30032,"Ashland (Harlem-54th/Cermak-bound)","Ashland",41.885269,-87.666969,41,13,0.0109924296873688,"12",41.88031148,-87.65715796,0.982718574492879
30033,"Ashland (Loop-63rd-bound)","Ashland",41.885269,-87.666969,42,13,0.0109924296873688,"12",41.88031148,-87.65715796,0.982718574492879
30056,"Ashland/63rd (Harlem-bound)","Ashland/63rd",41.77886,-87.663766,43,8,0.00438610564589865,"7",41.77965871,-87.65945323,0.368891172988798
30057,"Ashland/63rd (Terminal arrival)","Ashland/63rd",41.77886,-87.663766,44,8,0.00438610564589865,"7",41.77965871,-87.65945323,0.368891172988798
30002,"Austin (Forest Pk-bound)","Austin",41.870851,-87.776812,45,15,0.012418560654356,"15",41.87978023,-87.76818127,1.22466878669473
30001,"Austin (O'Hare-bound)","Austin",41.870851,-87.776812,46,15,0.012418560654356,"15",41.87978023,-87.76818127,1.22466878669473
30243,"Austin (63rd-bound)","Austin",41.887293,-87.774135,47,15,0.00958585489071226,"15",41.87978023,-87.76818127,0.971032720377669
30244,"Austin (Harlem-bound)","Austin",41.887293,-87.774135,48,15,0.00958585489071226,"15",41.87978023,-87.76818127,0.971032720377669
30013,"Belmont (O'Hare Branch) (Forest Pk-bound)","Belmont",41.938132,-87.712359,49,14,0.0226053067698007,"14",41.92125066,-87.69732503,2.2542660454461
30012,"Belmont (O'Hare Branch) (O'Hare-bound)","Belmont",41.938132,-87.712359,50,14,0.0226053067698007,"14",41.92125066,-87.69732503,2.2542660454461
30256,"Belmont (95th-bound)","Belmont",41.939751,-87.65338,51,19,0.00793415975213551,"19",41.94665927,-87.64947786,0.834142611730566
30255,"Belmont (Howard-bound)","Belmont",41.939751,-87.65338,52,19,0.00793415975213551,"19",41.94665927,-87.64947786,0.834142611730566
30257,"Belmont (Kimball-Linden-bound)","Belmont",41.939751,-87.65338,53,19,0.00793415975213551,"19",41.94665927,-87.64947786,0.834142611730566
30258,"Belmont (Loop-bound)","Belmont",41.939751,-87.65338,54,19,0.00793415975213551,"19",41.94665927,-87.64947786,0.834142611730566
30067,"Berwyn (95th-bound)","Berwyn",41.977984,-87.658668,55,22,0.0248477734613182,"24",41.99944797,-87.67118638,2.60420834089073
30066,"Berwyn (Howard-bound)","Berwyn",41.977984,-87.658668,56,22,0.0248477734613182,"24",41.99944797,-87.67118638,2.60420834089073
30268,"Bryn Mawr (95th-bound)","Bryn Mawr",41.983504,-87.65884,57,22,0.0201653980487632,"24",41.99944797,-87.67118638,2.04784579360746
30267,"Bryn Mawr (Howard-bound)","Bryn Mawr",41.983504,-87.65884,58,22,0.0201653980487632,"24",41.99944797,-87.67118638,2.04784579360746
30087,"California (54th/Cermak-bound)","California",41.854109,-87.694774,59,11,0.0138142717702859,"10",41.85636188,-87.70840333,1.15756338821672
30086,"California (Loop-bound)","California",41.854109,-87.694774,60,11,0.0138142717702859,"10",41.85636188,-87.70840333,1.15756338821672
30112,"California (Forest Pk-bound)","California",41.921939,-87.69689,61,14,0.000814286839209415,"14",41.92125066,-87.69732503,0.084675106195511
30265,"California (63rd-bound)","California",41.88422,-87.696234,62,12,0.0138287573251137,"11",41.87369081,-87.70519897,1.38778805068696
30266,"California (Harlem-bound)","California",41.88422,-87.696234,63,12,0.0138287573251137,"11",41.87369081,-87.70519897,1.38778805068696
30111,"California (O'Hare-bound)","California",41.921939,-87.69689,64,14,0.000814286839209415,"14",41.92125066,-87.69732503,0.084675106195511
30242,"Central (Howard-Loop-bound)","Central",42.063987,-87.685617,65,22,0.0661326635402289,"24",41.99944797,-87.67118638,7.28287083024608
30241,"Central (Linden-bound)","Central",42.063987,-87.685617,66,22,0.0661326635402289,"24",41.99944797,-87.67118638,7.28287083024608
30054,"Central (63rd-bound)","Central",41.887389,-87.76565,67,15,0.00801877227047814,"15",41.87978023,-87.76818127,0.872598670999451
30055,"Central (Harlem-bound)","Central",41.887389,-87.76565,68,15,0.00801877227047814,"15",41.87978023,-87.76818127,0.872598670999451
30152,"Central Park (54th/Cermak-bound)","Central Park",41.853839,-87.714842,69,11,0.00691530150198918,"10",41.85636188,-87.70840333,0.603225964329897
30151,"Central Park (Loop-bound)","Central Park",41.853839,-87.714842,70,11,0.00691530150198918,"10",41.85636188,-87.70840333,0.603225964329897
30194,"Cermak-Chinatown (95th-bound)","Cermak-Chinatown",41.853206,-87.630968,71,2,0.00668359991335677,"1",41.85882087,-87.62734257,0.693570657312959
30193,"Cermak-Chinatown (Howard-bound)","Cermak-Chinatown",41.853206,-87.630968,72,2,0.00668359991335677,"1",41.85882087,-87.62734257,0.693570657312959
30272,"Chicago (Forest Pk-bound)","Chicago",41.896075,-87.655214,73,18,0.0136379047834518,"18",41.90311764,-87.64353523,1.24539645171228
30271,"Chicago (O'Hare-bound)","Chicago",41.896075,-87.655214,74,18,0.0136379047834518,"18",41.90311764,-87.64353523,1.24539645171228
30137,"Chicago (Kimball-Linden-bound)","Chicago",41.89681,-87.635924,75,18,0.0098851982520518,"18",41.90311764,-87.64353523,0.943791010734693
30138,"Chicago (Loop-bound)","Chicago",41.89681,-87.635924,76,18,0.0098851982520518,"18",41.90311764,-87.64353523,0.943791010734693
30280,"Chicago (95th-bound)","Chicago",41.896671,-87.628176,77,18,0.0166572840968311,"18",41.90311764,-87.64353523,1.4610098964834
30279,"Chicago (Howard-bound)","Chicago",41.896671,-87.628176,78,18,0.0166572840968311,"18",41.90311764,-87.64353523,1.4610098964834
30083,"Cicero (54th/Cermak-bound)","Cicero",41.85182,-87.745336,79,15,0.0361065205056691,"15",41.87978023,-87.76818127,3.64343569096282
30082,"Cicero (Loop-bound)","Cicero",41.85182,-87.745336,80,15,0.0361065205056691,"15",41.87978023,-87.76818127,3.64343569096282
30188,"Cicero (Forest Pk-bound)","Cicero",41.871574,-87.745154,81,15,0.0244458048438947,"15",41.87978023,-87.76818127,2.11603119708133
30187,"Cicero (O'Hare-bound)","Cicero",41.871574,-87.745154,82,15,0.0244458048438947,"15",41.87978023,-87.76818127,2.11603119708133
30094,"Cicero (63rd-bound)","Cicero",41.886519,-87.744698,83,15,0.0244310251730411,"15",41.87978023,-87.76818127,2.08581950006907
30009,"Cicero (Harlem-bound)","Cicero",41.886519,-87.744698,84,15,0.0244310251730411,"15",41.87978023,-87.76818127,2.08581950006907
30122,"Clark/Division (95th-bound)","Clark/Division",41.90392,-87.631412,85,18,0.0121497525572544,"18",41.90311764,-87.64353523,1.0083963509541
30121,"Clark/Division (Howard-bound)","Clark/Division",41.90392,-87.631412,86,18,0.0121497525572544,"18",41.90311764,-87.64353523,1.0083963509541
30074,"Clark/Lake (Inner Loop)","Clark/Lake",41.885737,-87.630886,87,18,0.0214962709882972,"18",41.90311764,-87.64353523,2.20048173685301
30075,"Clark/Lake (Outer Loop)","Clark/Lake",41.885737,-87.630886,88,18,0.0214962709882972,"18",41.90311764,-87.64353523,2.20048173685301
30374,"Clark/Lake (Forest Pk-bound)","Clark/Lake",41.885737,-87.630886,89,18,0.0214962709882972,"18",41.90311764,-87.64353523,2.20048173685301
30375,"Clark/Lake (O'Hare-bound)","Clark/Lake",41.885737,-87.630886,90,18,0.0214962709882972,"18",41.90311764,-87.64353523,2.20048173685301
30085,"Clinton (Forest Pk-bound)","Clinton",41.875539,-87.640984,91,13,0.0168633788853866,"12",41.88031148,-87.65715796,1.44201423791318
30084,"Clinton (O'Hare-bound)","Clinton",41.875539,-87.640984,92,13,0.0168633788853866,"12",41.88031148,-87.65715796,1.44201423791318
30222,"Clinton (Harlem-54th/Cermak-bound)","Clinton",41.885678,-87.641782,93,13,0.0162855667028186,"12",41.88031148,-87.65715796,1.40741641280142
30221,"Clinton (Loop-63rd-bound)","Clinton",41.885678,-87.641782,94,13,0.0162855667028186,"12",41.88031148,-87.65715796,1.40741641280142
30291,"Conservatory (63rd-bound)","Conservatory",41.884904,-87.716523,95,12,0.0159364138192043,"11",41.87369081,-87.70519897,1.56174377539497
30292,"Conservatory (Harlem-bound)","Conservatory",41.884904,-87.716523,96,12,0.0159364138192043,"11",41.87369081,-87.70519897,1.56174377539497
30139,"Cottage Grove (Terminal arrival)","Cottage Grove",41.780309,-87.605857,97,4,0.0133393084467878,"3",41.76697112,-87.60566179,1.48485631663291
30140,"Cottage Grove (Harlem-bound)","Cottage Grove",41.780309,-87.605857,98,4,0.0133393084467878,"3",41.76697112,-87.60566179,1.48485631663291
30045,"Cumberland (Forest Pk-bound)","Cumberland",41.984246,-87.838028,99,16,0.0724910334871835,"16",41.9741888,-87.76623801,6.04545238721391
30044,"Cumberland (O'Hare-bound)","Cumberland",41.984246,-87.838028,100,16,0.0724910334871835,"16",41.9741888,-87.76623801,6.04545238721391
30041,"Damen (54th/Cermak-bound)","Damen",41.854517,-87.675975,101,13,0.031928610881647,"12",41.88031148,-87.65715796,3.26778794811876
30040,"Damen (Loop-bound)","Damen",41.854517,-87.675975,102,13,0.031928610881647,"12",41.88031148,-87.65715796,3.26778794811876
30116,"Damen/Milwaukee (Forest Pk-bound)","Damen",41.909744,-87.677437,103,14,0.0229768788488896,"14",41.92125066,-87.69732503,2.08682720643027
30115,"Damen/Milwaukee (O'Hare-bound)","Damen",41.909744,-87.677437,104,14,0.0229768788488896,"14",41.92125066,-87.69732503,2.08682720643027
30018,"Damen (Kimball-bound)","Damen",41.966286,-87.678639,105,20,0.0195555153975861,"20",41.97954202,-87.69301593,1.89560729776769
30019,"Damen (Loop-bound)","Damen",41.966286,-87.678639,106,20,0.0195555153975861,"20",41.97954202,-87.69301593,1.89560729776769
30011,"Davis (Howard-Loop-bound)","Davis",42.04771,-87.683543,107,22,0.049818767523352,"24",41.99944797,-87.67118638,5.46882435056544
30010,"Davis (Linden-bound)","Davis",42.04771,-87.683543,108,22,0.049818767523352,"24",41.99944797,-87.67118638,5.46882435056544
30134,"Dempster (Howard-Loop-bound)","Dempster",42.041655,-87.681602,109,22,0.0434731931356023,"24",41.99944797,-87.67118638,4.77677597263711
30133,"Dempster (Linden-bound)","Dempster",42.041655,-87.681602,110,22,0.0434731931356023,"24",41.99944797,-87.67118638,4.77677597263711
30103,"Diversey (Kimball-Linden-bound)","Diversey",41.932732,-87.653131,111,19,0.0143984124650039,"19",41.94665927,-87.64947786,1.57961348183577
30104,"Diversey (Loop-bound)","Diversey",41.932732,-87.653131,112,19,0.0143984124650039,"19",41.94665927,-87.64947786,1.57961348183577
30063,"Division (Forest Pk-bound)","Division",41.903355,-87.666496,113,18,0.0229619968374351,"18",41.90311764,-87.64353523,1.90253578951795
30062,"Division (O'Hare-bound)","Division",41.903355,-87.666496,114,18,0.0229619968374351,"18",41.90311764,-87.64353523,1.90253578951795
30076,"Forest Park (O'Hare-bound)","Forest Park",41.874257,-87.817318,115,15,0.0494461758352038,"15",41.87978023,-87.76818127,4.11891007426243
30077,"Forest Park (Terminal Arrival)","Forest Park",41.874257,-87.817318,116,15,0.0494461758352038,"15",41.87978023,-87.76818127,4.11891007426243
30102,"Foster (Howard-Loop-bound)","Foster",42.05416,-87.68356,117,22,0.0560937848484654,"24",41.99944797,-87.67118638,6.17587243519083
30101,"Foster (Linden-bound)","Foster",42.05416,-87.68356,118,22,0.0560937848484654,"24",41.99944797,-87.67118638,6.17587243519083
30167,"Francisco (Kimball-bound)","Francisco",41.966046,-87.701644,119,20,0.0160183066447503,"20",41.97954202,-87.69301593,1.66343803385133
30168,"Francisco (Loop-bound)","Francisco",41.966046,-87.701644,120,20,0.0160183066447503,"20",41.97954202,-87.69301593,1.66343803385133
30234,"Fullerton (95th-bound)","Fullerton",41.925051,-87.652866,121,19,0.0218722844040637,"19",41.94665927,-87.64947786,2.42173246348789
30233,"Fullerton (Howard-bound)","Fullerton",41.925051,-87.652866,122,19,0.0218722844040637,"19",41.94665927,-87.64947786,2.42173246348789
30235,"Fullerton (Kimball-Linden-bound)","Fullerton",41.925051,-87.652866,123,19,0.0218722844040637,"19",41.94665927,-87.64947786,2.42173246348789
30236,"Fullerton (Loop-bound)","Fullerton",41.925051,-87.652866,124,19,0.0218722844040637,"19",41.94665927,-87.64947786,2.42173246348789
30100,"Garfield (63rd-bound)","Garfield",41.795172,-87.618327,125,3,0.0139920691639956,"2",41.80177388,-87.63066366,1.26026332511494
30099,"Garfield (Harlem-bound)","Garfield",41.795172,-87.618327,126,3,0.0139920691639956,"2",41.80177388,-87.63066366,1.26026332511494
30224,"Garfield (95th-bound)","Garfield",41.79542,-87.631157,127,3,0.00637300364114064,"2",41.80177388,-87.63066366,0.708495482667966
30223,"Garfield (Howard-bound)","Garfield",41.79542,-87.631157,128,3,0.00637300364114064,"2",41.80177388,-87.63066366,0.708495482667966
30096,"Grand/Milwaukee (Forest Pk-bound)","Grand",41.891189,-87.647578,129,18,0.0125950959314529,"18",41.90311764,-87.64353523,1.36949309458896
30095,"Grand/Milwaukee (O'Hare-bound)","Grand",41.891189,-87.647578,130,18,0.0125950959314529,"18",41.90311764,-87.64353523,1.36949309458896
30065,"Grand/State (95th-bound)","Grand",41.891665,-87.628021,131,18,0.0192835239378642,"18",41.90311764,-87.64353523,1.81049932164774
30064,"Grand/State (Howard-bound)","Grand",41.891665,-87.628021,132,18,0.0192835239378642,"18",41.90311764,-87.64353523,1.81049932164774
30148,"Granville (95th-bound)","Granville",41.993664,-87.659202,133,22,0.013307128651414,"24",41.99944797,-87.67118638,1.18220213638935
30147,"Granville (Howard-bound)","Granville",41.993664,-87.659202,134,22,0.013307128651414,"24",41.99944797,-87.67118638,1.18220213638935
30215,"Halsted (Loop-bound)","Halsted",41.84678,-87.648088,135,10,0.00939234591878777,"9",41.8375031,-87.64661991,1.03985326296172
30216,"Halsted (Midway-bound)","Halsted",41.84678,-87.648088,136,10,0.00939234591878777,"9",41.8375031,-87.64661991,1.03985326296172
30184,"Halsted/63rd (Ashland-bound)","Halsted",41.778943,-87.644244,137,8,0.0152260604884157,"7",41.77965871,-87.65945323,1.26507380794893
30183,"Halsted/63rd (Harlem-bound)","Halsted",41.778943,-87.644244,138,8,0.0152260604884157,"7",41.77965871,-87.65945323,1.26507380794893
30190,"Harlem (Forest Pk Branch) (Terminal arrival)","Harlem",41.87349,-87.806961,139,15,0.0392865683449953,"15",41.87978023,-87.76818127,3.28971397845439
30189,"Harlem (Forest Pk Branch) (O'Hare-bound)","Harlem",41.87349,-87.806961,140,15,0.0392865683449953,"15",41.87978023,-87.76818127,3.28971397845439
30146,"Harlem (O'Hare Branch) (Forest Pk-bound)","Harlem",41.98227,-87.8089,141,16,0.0434206308590746,"16",41.9741888,-87.76623801,3.64329862004053
30145,"Harlem (O'Hare Branch) (O'Hare-bound)","Harlem",41.98227,-87.8089,142,16,0.0434206308590746,"16",41.9741888,-87.76623801,3.64329862004053
30004,"Harlem (Terminal arrival)","Harlem/Lake",41.886848,-87.803176,143,15,0.0357013235125165,"15",41.87978023,-87.76818127,3.0051211135051
30003,"Harlem (63rd-bound)","Harlem/Lake",41.886848,-87.803176,144,15,0.0357013235125165,"15",41.87978023,-87.76818127,3.0051211135051
30166,"H.W. Library (Inner Loop)","Harold Washington Library-State/Van Buren",41.876862,-87.628196,145,2,0.0180613043394385,"1",41.85882087,-87.62734257,2.00957765944513
30165,"H.W. Library (Outer Loop)","Harold Washington Library-State/Van Buren",41.876862,-87.628196,146,2,0.0180613043394385,"1",41.85882087,-87.62734257,2.00957765944513
30286,"Harrison (95th-bound)","Harrison",41.874039,-87.627479,147,2,0.0152187415327887,"1",41.85882087,-87.62734257,1.69411436112728
30285,"Harrison (Howard-bound)","Harrison",41.874039,-87.627479,148,2,0.0152187415327887,"1",41.85882087,-87.62734257,1.69411436112728
30175,"Howard (Linden, Skokie-bound)","Howard",42.019063,-87.672892,149,22,0.0196890462309757,"24",41.99944797,-87.67118638,2.18809076134683
30176,"Howard (Terminal arrival)","Howard",42.019063,-87.672892,150,22,0.0196890462309757,"24",41.99944797,-87.67118638,2.18809076134683
30173,"Howard (Terminal arrival)","Howard",42.019063,-87.672892,151,22,0.0196890462309757,"24",41.99944797,-87.67118638,2.18809076134683
30174,"Howard (95th-Bound)","Howard",42.019063,-87.672892,152,22,0.0196890462309757,"24",41.99944797,-87.67118638,2.18809076134683
30158,"Illinois Medical District (Forest Pk-bound)","Illinois Medical District",41.875706,-87.673932,153,13,0.0173947941623806,"12",41.88031148,-87.65715796,1.48183035936729
30157,"Illinois Medical District (O'Hare-bound)","Illinois Medical District",41.875706,-87.673932,154,13,0.0173947941623806,"12",41.88031148,-87.65715796,1.48183035936729
30059,"Indiana (63rd-bound)","Indiana",41.821732,-87.621371,155,1,0.0093307293944812,"Headquarters",41.83086073,-87.62330201,1.02875380463044
30058,"Indiana (Harlem-bound)","Indiana",41.821732,-87.621371,156,1,0.0093307293944812,"Headquarters",41.83086073,-87.62330201,1.02875380463044
30108,"Irving Park (O'Hare Branch) (Forest Pk-bound)","Irving Park",41.952925,-87.729229,157,17,0.0131705277665585,"17",41.96605219,-87.72816144,1.46398360901581
30107,"Irving Park (O'Hare Branch) (O'Hare-bound)","Irving Park",41.952925,-87.729229,158,17,0.0131705277665585,"17",41.96605219,-87.72816144,1.46398360901581
30281,"Irving Park (Kimball-bound)","Irving Park",41.954521,-87.674868,159,19,0.0265794282822727,"19",41.94665927,-87.64947786,2.27697454267975
30282,"Irving Park (Loop-bound)","Irving Park",41.954521,-87.674868,160,19,0.0265794282822727,"19",41.94665927,-87.64947786,2.27697454267975
30015,"Jackson/Dearborn (Forest Pk-bound)","Jackson",41.878183,-87.629296,161,2,0.0194604205222217,"1",41.85882087,-87.62734257,2.16145965496658
30014,"Jackson/Dearborn (O'Hare-bound)","Jackson",41.878183,-87.629296,162,2,0.0194604205222217,"1",41.85882087,-87.62734257,2.16145965496658
30110,"Jackson/State (95th-bound)","Jackson",41.878153,-87.627596,163,2,0.0193337910690483,"1",41.85882087,-87.62734257,2.15214810973759
30109,"Jackson/State (Howard-bound)","Jackson",41.878153,-87.627596,164,2,0.0193337910690483,"1",41.85882087,-87.62734257,2.15214810973759
30228,"Jarvis (95th-bound)","Jarvis",42.015876,-87.669092,165,22,0.0165609962642728,"24",41.99944797,-87.67118638,1.8369494860981
30227,"Jarvis (Howard-bound)","Jarvis",42.015876,-87.669092,166,22,0.0165609962642728,"24",41.99944797,-87.67118638,1.8369494860981
30248,"Jefferson Park (Forest Pk-bound)","Jefferson Park",41.970634,-87.760892,167,16,0.00642000202181345,"16",41.9741888,-87.76623801,0.593594666390432
30247,"Jefferson Park (O'Hare-bound)","Jefferson Park",41.970634,-87.760892,168,16,0.00642000202181345,"16",41.9741888,-87.76623801,0.593594666390432
30219,"Kedzie (Loop-bound)","Kedzie",41.804236,-87.704406,169,9,0.0256191239016197,"8",41.77899321,-87.70878105,2.83338218554656
30220,"Kedzie (Midway-bound)","Kedzie",41.804236,-87.704406,170,9,0.0256191239016197,"8",41.77899321,-87.70878105,2.83338218554656
30202,"Kedzie (54th/Cermak-bound)","Kedzie",41.853964,-87.705408,171,11,0.00383690373911828,"10",41.85636188,-87.70840333,0.364600154109601
30201,"Kedzie (Loop-bound)","Kedzie",41.853964,-87.705408,172,11,0.00383690373911828,"10",41.85636188,-87.70840333,0.364600154109601
30225,"Kedzie (Kimball-bound)","Kedzie",41.965996,-87.708821,173,17,0.0193405216245438,"17",41.96605219,-87.72816144,1.60083519538263
30226,"Kedzie (Loop-bound)","Kedzie",41.965996,-87.708821,174,17,0.0193405216245438,"17",41.96605219,-87.72816144,1.60083519538263
30207,"Kedzie (63rd-bound)","Kedzie",41.884321,-87.706155,175,12,0.0106730938718352,"11",41.87369081,-87.70519897,1.1859988638832
30208,"Kedzie (Harlem-bound)","Kedzie",41.884321,-87.706155,176,12,0.0106730938718352,"11",41.87369081,-87.70519897,1.1859988638832
30049,"Kedzie-Homan (Forest Pk-bound)","Kedzie-Homan",41.874341,-87.70604,177,12,0.00106305150251928,"11",41.87369081,-87.70519897,0.100491932088973
30048,"Kedzie-Homan (O'Hare-bound)","Kedzie-Homan",41.874341,-87.70604,178,12,0.00106305150251928,"11",41.87369081,-87.70519897,0.100491932088973
30250,"Kimball (Loop-bound)","Kimball",41.967901,-87.713065,179,17,0.0152092274323681,"17",41.96605219,-87.72816144,1.26636110433088
30249,"Kimball (Terminal arrival)","Kimball",41.967901,-87.713065,180,17,0.0152092274323681,"17",41.96605219,-87.72816144,1.26636110433088
30217,"King Drive (Cottage Grove-bound)","King Drive",41.78013,-87.615546,181,4,0.0164576344040808,"3",41.76697112,-87.60566179,1.67902652159681
30218,"King Drive (Harlem-bound)","King Drive",41.78013,-87.615546,182,4,0.0164576344040808,"3",41.76697112,-87.60566179,1.67902652159681
30118,"Kostner (54th/Cermak-bound)","Kostner",41.853751,-87.733258,183,11,0.0249914248330066,"10",41.85636188,-87.70840333,2.08121345933325
30117,"Kostner (Loop-bound)","Kostner",41.853751,-87.733258,184,11,0.0249914248330066,"10",41.85636188,-87.70840333,2.08121345933325
30290,"Lake (95th-bound)","Lake",41.884809,-87.627813,185,18,0.0241328575768049,"18",41.90311764,-87.64353523,2.41892855037645
30289,"Lake (Howard-bound)","Lake",41.884809,-87.627813,186,18,0.0241328575768049,"18",41.90311764,-87.64353523,2.41892855037645
30135,"Laramie (63rd-bound)","Laramie",41.887163,-87.754986,187,15,0.015120199841461,"15",41.87978023,-87.76818127,1.36798628887896
30136,"Laramie (Harlem-bound)","Laramie",41.887163,-87.754986,188,15,0.015120199841461,"15",41.87978023,-87.76818127,1.36798628887896
30262,"LaSalle (Forest Pk-bound)","LaSalle",41.875568,-87.631722,189,2,0.0173102793265089,"1",41.85882087,-87.62734257,1.89930558981244
30261,"LaSalle (O'Hare-bound)","LaSalle",41.875568,-87.631722,190,2,0.0173102793265089,"1",41.85882087,-87.62734257,1.89930558981244
30031,"LaSalle/Van Buren (Inner Loop)","LaSalle/Van Buren",41.8768,-87.631739,191,2,0.0185088549700358,"1",41.85882087,-87.62734257,2.03434285959335
30030,"LaSalle/Van Buren (Outer Loop)","LaSalle/Van Buren",41.8768,-87.631739,192,2,0.0185088549700358,"1",41.85882087,-87.62734257,2.03434285959335
30150,"Lawrence (95th-bound)","Lawrence",41.969139,-87.658493,193,19,0.0242200538829411,"19",41.94665927,-87.64947786,2.61134517873933
30149,"Lawrence (Howard-bound)","Lawrence",41.969139,-87.658493,194,19,0.0242200538829411,"19",41.94665927,-87.64947786,2.61134517873933
30204,"Linden (Howard-Loop-bound)","Linden",42.073153,-87.69073,195,22,0.0762521116429275,"24",41.99944797,-87.67118638,8.36241606070369
30203,"Linden (Linden-bound)","Linden",42.073153,-87.69073,196,22,0.0762521116429275,"24",41.99944797,-87.67118638,8.36241606070369
30198,"Logan Square (Forest Pk-bound)","Logan Square",41.929728,-87.708541,197,14,0.0140592772401844,"14",41.92125066,-87.69732503,1.32419693334787
30197,"Logan Square (O'Hare-bound)","Logan Square",41.929728,-87.708541,198,14,0.0140592772401844,"14",41.92125066,-87.69732503,1.32419693334787
30252,"Loyola (95th-bound)","Loyola",42.001073,-87.661061,199,22,0.0102549521035018,"24",41.99944797,-87.67118638,0.856945871862026
30251,"Loyola (Howard-bound)","Loyola",42.001073,-87.661061,200,22,0.0102549521035018,"24",41.99944797,-87.67118638,0.856945871862026
30124,"Madison/Wabash (Inner Loop)","Madison/Wabash",41.882023,-87.626098,201,2,0.0232354855990041,"1",41.85882087,-87.62734257,2.58491217523835
30123,"Madison/Wabash (Outer Loop)","Madison/Wabash",41.882023,-87.626098,202,2,0.0232354855990041,"1",41.85882087,-87.62734257,2.58491217523835
30053,"Main (Howard-Loop-bound)","Main",42.033456,-87.679538,203,22,0.0350185045526712,"24",41.99944797,-87.67118638,3.84825758261888
30052,"Main (Linden-bound)","Main",42.033456,-87.679538,204,22,0.0350185045526712,"24",41.99944797,-87.67118638,3.84825758261888
30090,"Merchandise Mart (Kimball-Linden-bound)","Merchandise Mart",41.888969,-87.633924,205,18,0.017104378268807,"18",41.90311764,-87.64353523,1.76492170005973
30091,"Merchandise Mart (Loop-bound)","Merchandise Mart",41.888969,-87.633924,206,18,0.017104378268807,"18",41.90311764,-87.64353523,1.76492170005973
30182,"Midway (Arrival)","Midway",41.78661,-87.737875,207,9,0.0300744645256871,"8",41.77899321,-87.70878105,2.55956201314865
30181,"Midway (Loop-bound)","Midway",41.78661,-87.737875,208,9,0.0300744645256871,"8",41.77899321,-87.70878105,2.55956201314865
30154,"Monroe (Forest Pk-bound)","Monroe",41.880703,-87.629378,209,2,0.0219765918336212,"1",41.85882087,-87.62734257,2.44174729374131
30153,"Monroe (O'Hare-bound)","Monroe",41.880703,-87.629378,210,2,0.0219765918336212,"1",41.85882087,-87.62734257,2.44174729374131
30212,"Monroe (95th-bound)","Monroe",41.880745,-87.627696,211,2,0.0219269785657209,"1",41.85882087,-87.62734257,2.44076189420848
30211,"Monroe (Howard-bound)","Monroe",41.880745,-87.627696,212,2,0.0219269785657209,"1",41.85882087,-87.62734257,2.44076189420848
30260,"Montrose (Forest Pk-bound)","Montrose",41.961539,-87.743574,213,17,0.0160597599524314,"17",41.96605219,-87.72816144,1.37111656451022
30259,"Montrose (O'Hare-bound)","Montrose",41.961539,-87.743574,214,17,0.0160597599524314,"17",41.96605219,-87.72816144,1.37111656451022
30287,"Montrose (Kimball-bound)","Montrose",41.961756,-87.675047,215,20,0.0252828984253183,"20",41.97954202,-87.69301593,2.47626362031838
30288,"Montrose (Loop-bound)","Montrose",41.961756,-87.675047,216,20,0.0252828984253183,"20",41.97954202,-87.69301593,2.47626362031838
30296,"Morgan (Harlem-54th/Cermak-bound)","Morgan",41.885586,-87.652193,217,13,0.00724371375967452,"12",41.88031148,-87.65715796,0.71699179794981
30295,"Morgan (Loop-63rd-bound)","Morgan",41.885586,-87.652193,218,13,0.00724371375967452,"12",41.88031148,-87.65715796,0.71699179794981
30021,"Morse (95th-bound)","Morse",42.008362,-87.665909,219,22,0.0103590863740605,"24",41.99944797,-87.67118638,1.08408981037631
30020,"Morse (Howard-bound)","Morse",42.008362,-87.665909,220,22,0.0103590863740605,"24",41.99944797,-87.67118638,1.08408981037631
30126,"North/Clybourn (95th-bound)","North/Clybourn",41.910655,-87.649177,221,18,0.00941495430166679,"18",41.90311764,-87.64353523,0.960460476623728
30125,"North/Clybourn (Howard-bound)","North/Clybourn",41.910655,-87.649177,222,18,0.00941495430166679,"18",41.90311764,-87.64353523,0.960460476623728
30079,"Noyes (Howard-Loop-bound)","Noyes",42.058282,-87.683337,223,22,0.0600756244447387,"24",41.99944797,-87.67118638,6.62600028486571
30078,"Noyes (Linden-bound)","Noyes",42.058282,-87.683337,224,22,0.0600756244447387,"24",41.99944797,-87.67118638,6.62600028486571
30035,"Oak Park (Forest Pk-bound)","Oak Park",41.872108,-87.791602,225,15,0.0246453587295006,"15",41.87978023,-87.76818127,2.1208590378471
30034,"Oak Park (O'Hare-bound)","Oak Park",41.872108,-87.791602,226,15,0.0246453587295006,"15",41.87978023,-87.76818127,2.1208590378471
30263,"Oak Park (63rd-bound)","Oak Park",41.886988,-87.793783,227,15,0.0265970022251773,"15",41.87978023,-87.76818127,2.26846139152712
30264,"Oak Park (Harlem-bound)","Oak Park",41.886988,-87.793783,228,15,0.0265970022251773,"15",41.87978023,-87.76818127,2.26846139152712
30297,"Oakton-Skokie (Dempster-Skokie-bound)","Oakton-Skokie",42.02624348,-87.74722084,229,16,0.0554196938345114,"16",41.9741888,-87.76623801,6.00447002490637
30298,"Oakton-Skokie (Howard-bound)","Oakton-Skokie",42.02624348,-87.74722084,230,16,0.0554196938345114,"16",41.9741888,-87.76623801,6.00447002490637
30172,"O'Hare (Forest Pk-bound)","O'Hare",41.97766526,-87.90422307,231,16,0.138028846830424,"16",41.9741888,-87.76623801,11.4259077580578
30171,"O'Hare (Terminal Arrival)","O'Hare",41.97766526,-87.90422307,232,16,0.138028846830424,"16",41.9741888,-87.76623801,11.4259077580578
30253,"Paulina (Kimball-bound)","Paulina",41.943623,-87.670907,233,19,0.0216431739043113,"19",41.94665927,-87.64947786,1.80619431008514
30254,"Paulina (Loop-bound)","Paulina",41.943623,-87.670907,234,19,0.0216431739043113,"19",41.94665927,-87.64947786,1.80619431008514
30200,"Polk (54th/Cermak-bound)","Polk",41.871551,-87.66953,235,13,0.0151595970788086,"12",41.88031148,-87.65715796,1.41515758817983
30199,"Polk (Loop-bound)","Polk",41.871551,-87.66953,236,13,0.0151595970788086,"12",41.88031148,-87.65715796,1.41515758817983
30185,"Pulaski (Loop-bound)","Pulaski",41.799756,-87.724493,237,9,0.0260376423930135,"8",41.77899321,-87.70878105,2.65382481336638
30186,"Pulaski (Midway-bound)","Pulaski",41.799756,-87.724493,238,9,0.0260376423930135,"8",41.77899321,-87.70878105,2.65382481336638
30029,"Pulaski (54th/Cermak-bound)","Pulaski",41.853732,-87.724311,239,11,0.0161235924546436,"10",41.85636188,-87.70840333,1.3510802869323
30028,"Pulaski (Loop-bound)","Pulaski",41.853732,-87.724311,240,11,0.0161235924546436,"10",41.85636188,-87.70840333,1.3510802869323
30180,"Pulaski (Forest Pk-bound)","Pulaski",41.873797,-87.725663,241,12,0.0204643055136737,"11",41.87369081,-87.70519897,1.69631579582769
30179,"Pulaski (O'Hare-bound)","Pulaski",41.873797,-87.725663,242,12,0.0204643055136737,"11",41.87369081,-87.70519897,1.69631579582769
30005,"Pulaski (63rd-bound)","Pulaski",41.885412,-87.725404,243,12,0.0233587142693483,"11",41.87369081,-87.70519897,2.12296124561581
30006,"Pulaski (Harlem-bound)","Pulaski",41.885412,-87.725404,244,12,0.0233587142693483,"11",41.87369081,-87.70519897,2.12296124561581
30007,"Quincy/Wells (Inner Loop)","Quincy/Wells",41.878723,-87.63374,245,2,0.0209050685036387,"1",41.85882087,-87.62734257,2.27808642926628
30008,"Quincy/Wells (Outer Loop)","Quincy/Wells",41.878723,-87.63374,246,2,0.0209050685036387,"1",41.85882087,-87.62734257,2.27808642926628
30093,"Racine (Forest Pk-bound)","Racine",41.87592,-87.659458,247,13,0.0049573461238848,"12",41.88031148,-87.65715796,0.52471432715292
30092,"Racine (O'Hare-bound)","Racine",41.87592,-87.659458,248,13,0.0049573461238848,"12",41.88031148,-87.65715796,0.52471432715292
30039,"Randolph/Wabash (Inner Loop)","Randolph/Wabash",41.884431,-87.626149,249,18,0.0255239399016381,"18",41.90311764,-87.64353523,2.53037805079959
30038,"Randolph/Wabash (Outer Loop)","Randolph/Wabash",41.884431,-87.626149,250,18,0.0255239399016381,"18",41.90311764,-87.64353523,2.53037805079959
30119,"Ridgeland (63rd-bound)","Ridgeland",41.887159,-87.783661,251,15,0.0171484193902994,"15",41.87978023,-87.76818127,1.5233533428659
30120,"Ridgeland (Harlem-bound)","Ridgeland",41.887159,-87.783661,252,15,0.0171484193902994,"15",41.87978023,-87.76818127,1.5233533428659
30195,"Rockwell (Kimball-bound)","Rockwell",41.966115,-87.6941,253,20,0.0134707117052205,"20",41.97954202,-87.69301593,1.49738122270857
30196,"Rockwell (Loop-bound)","Rockwell",41.966115,-87.6941,254,20,0.0134707117052205,"20",41.97954202,-87.69301593,1.49738122270857
30080,"Roosevelt (Loop-Harlem-bound)","Roosevelt",41.867405,-87.62659,255,2,0.00861705573045276,"1",41.85882087,-87.62734257,0.957616821491792
30081,"Roosevelt (Midway-63rd-bound)","Roosevelt",41.867405,-87.62659,256,2,0.00861705573045276,"1",41.85882087,-87.62734257,0.957616821491792
30269,"Roosevelt (Howard-bound)","Roosevelt",41.867368,-87.627402,257,2,0.00854733661217009,"1",41.85882087,-87.62734257,0.951476109530833
30270,"Roosevelt (95th-bound)","Roosevelt",41.867368,-87.627402,258,2,0.00854733661217009,"1",41.85882087,-87.62734257,0.951476109530833
30160,"Rosemont (Forest Pk-bound)","Rosemont",41.983507,-87.859388,259,16,0.0936148999264554,"16",41.9741888,-87.76623801,7.77802204621768
30159,"Rosemont (O'Hare-bound)","Rosemont",41.983507,-87.859388,260,16,0.0936148999264554,"16",41.9741888,-87.76623801,7.77802204621768
30155,"Sedgwick (Kimball-Linden-bound)","Sedgwick",41.910409,-87.639302,261,18,0.00843114267952605,"18",41.90311764,-87.64353523,0.88420049830723
30156,"Sedgwick (Loop-bound)","Sedgwick",41.910409,-87.639302,262,18,0.00843114267952605,"18",41.90311764,-87.64353523,0.88420049830723
30017,"Sheridan (95th-bound)","Sheridan",41.953775,-87.654929,263,19,0.00896373475357436,"19",41.94665927,-87.64947786,0.91166481829881
30016,"Sheridan (Howard-bound)","Sheridan",41.953775,-87.654929,264,19,0.00896373475357436,"19",41.94665927,-87.64947786,0.91166481829881
30293,"Sheridan (Howard-Linden-bound)","Sheridan",41.953775,-87.654929,265,19,0.00896373475357436,"19",41.94665927,-87.64947786,0.91166481829881
30294,"Sheridan (Loop-bound)","Sheridan",41.953775,-87.654929,266,19,0.00896373475357436,"19",41.94665927,-87.64947786,0.91166481829881
30026,"Dempster-Skokie (Arrival)","Dempster-Skokie",42.038951,-87.751919,267,16,0.0663262888771831,"16",41.9741888,-87.76623801,7.30595415503932
30027,"Dempster-Skokie (Howard-bound)","Dempster-Skokie",42.038951,-87.751919,268,16,0.0663262888771831,"16",41.9741888,-87.76623801,7.30595415503932
30164,"South Blvd (Howard-Loop-bound)","South Boulevard",42.027612,-87.678329,269,22,0.0290556295114287,"24",41.99944797,-87.67118638,3.19038152896288
30163,"South Blvd (Linden-bound)","South Boulevard",42.027612,-87.678329,270,22,0.0290556295114287,"24",41.99944797,-87.67118638,3.19038152896288
30070,"Southport (Kimball-bound)","Southport",41.943744,-87.663619,271,19,0.0144385123773975,"19",41.94665927,-87.64947786,1.21499796304483
30071,"Southport (Loop-bound)","Southport",41.943744,-87.663619,272,19,0.0144385123773975,"19",41.94665927,-87.64947786,1.21499796304483
30037,"Sox-35th (95th-bound)","Sox-35th",41.831191,-87.630636,273,1,0.00734142272266661,"Headquarters",41.83086073,-87.62330201,0.609434556008675
30036,"Sox-35th (Howard-bound)","Sox-35th",41.831191,-87.630636,274,1,0.00734142272266661,"Headquarters",41.83086073,-87.62330201,0.609434556008675
30050,"State/Lake (Inner Loop)","State/Lake",41.88574,-87.627835,275,18,0.0234196412018259,"18",41.90311764,-87.64353523,2.33125095191943
30051,"State/Lake (Outer Loop)","State/Lake",41.88574,-87.627835,276,18,0.0234196412018259,"18",41.90311764,-87.64353523,2.33125095191943
30170,"Thorndale (95th-bound)","Thorndale",41.990259,-87.659076,277,22,0.0152019233455881,"24",41.99944797,-87.67118638,1.4318580770267
30169,"Thorndale (Howard-bound)","Thorndale",41.990259,-87.659076,278,22,0.0152019233455881,"24",41.99944797,-87.67118638,1.4318580770267
30069,"UIC-Halsted (Forest Pk-bound)","UIC-Halsted",41.875474,-87.649707,279,13,0.0088835813539393,"12",41.88031148,-87.65715796,0.819382046994321
30068,"UIC-Halsted (O'Hare-bound)","UIC-Halsted",41.875474,-87.649707,280,13,0.0088835813539393,"12",41.88031148,-87.65715796,0.819382046994321
30073,"Washington (Forest Pk-bound)","Washington",41.883164,-87.62944,281,18,0.0244299663938011,"18",41.90311764,-87.64353523,2.5096036288225
30072,"Washington (O'Hare-bound)","Washington",41.883164,-87.62944,282,18,0.0244299663938011,"18",41.90311764,-87.64353523,2.5096036288225
30141,"Washington/Wells (Inner Loop)","Washington/Wells",41.882695,-87.63378,283,18,0.0226329126919716,"18",41.90311764,-87.64353523,2.41288231452248
30142,"Washington/Wells (Outer Loop)","Washington/Wells",41.882695,-87.63378,284,18,0.0226329126919716,"18",41.90311764,-87.64353523,2.41288231452248
30231,"Wellington (Kimball-Linden-bound)","Wellington",41.936033,-87.653266,285,19,0.011281295084005,"19",41.94665927,-87.64947786,1.22379323882796
30232,"Wellington (Loop-bound)","Wellington",41.936033,-87.653266,286,19,0.011281295084005,"19",41.94665927,-87.64947786,1.22379323882796
30060,"Western (Loop-bound)","Western",41.804546,-87.684019,287,8,0.0349693331254341,"7",41.77965871,-87.65945323,3.43981773238079
30061,"Western (Midway-bound)","Western",41.804546,-87.684019,288,8,0.0349693331254341,"7",41.77965871,-87.65945323,3.43981773238079
30144,"Western (54th/Cermak-bound)","Western",41.854225,-87.685129,289,11,0.023372220542408,"10",41.85636188,-87.70840333,1.94438452490001
30143,"Western (Loop-bound)","Western",41.854225,-87.685129,290,11,0.023372220542408,"10",41.85636188,-87.70840333,1.94438452490001
30043,"Western (Forest Pk Branch) (Forest Pk-bound)","Western",41.875478,-87.688436,291,12,0.0168579717438687,"11",41.87369081,-87.70519897,1.40364429807309
30042,"Western (Forest Pk Branch) (O'Hare-bound)","Western",41.875478,-87.688436,292,12,0.0168579717438687,"11",41.87369081,-87.70519897,1.40364429807309
30130,"Western (O'Hare Branch) (Forest Pk-bound)","Western",41.916157,-87.687364,293,14,0.0111878277988397,"14",41.92125066,-87.69732503,1.00114783213878
30129,"Western (O'Hare Branch) (O'Hare-bound)","Western",41.916157,-87.687364,294,14,0.0111878277988397,"14",41.92125066,-87.69732503,1.00114783213878
30283,"Western (Kimball-bound)","Western",41.966163,-87.688502,295,20,0.0141199766361415,"20",41.97954202,-87.69301593,1.53548663538236
30284,"Western (Loop-bound)","Western",41.966163,-87.688502,296,20,0.0141199766361415,"20",41.97954202,-87.69301593,1.53548663538236
30106,"Wilson (95th-bound)","Wilson",41.964273,-87.657588,297,19,0.0193911798334325,"19",41.94665927,-87.64947786,2.07251668597709
30105,"Wilson (Howard-bound)","Wilson",41.964273,-87.657588,298,19,0.0193911798334325,"19",41.94665927,-87.64947786,2.07251668597709
30381,"Cermak-McCormick Place (Harlem-bound)","Cermak-McCormick Place",41.853115,-87.626402,299,2,0.00578287336726249,"1",41.85882087,-87.62734257,0.639944946407181
30382,"Cermak-McCormick Place (63rd-bound)","Cermak-McCormick Place",41.853115,-87.626402,300,2,0.00578287336726249,"1",41.85882087,-87.62734257,0.639944946407181
